[{"id": "sPhWfZXoJ3AhYqeR9HodPQ", "alias": "sushi-n-grill-bakersfield", "name": "Sushi N Grill", "image_url": "https://s3-media3.fl.yelpcdn.com/bphoto/S36gaWKy2fnKP-59XXMawg/o.jpg", "is_closed": false, "url": "https://www.yelp.com/biz/sushi-n-grill-bakersfield?adjust_creative=1Jm_1M8YMBnoB20WncMiZA&utm_campaign=yelp_api_v3&utm_medium=api_v3_business_search&utm_source=1Jm_1M8YMBnoB20WncMiZA", "review_count": 199, "categories": [{"alias": "japanese", "title": "Japanese"}, {"alias": "sushi", "title": "Sushi Bars"}], "rating": 4.0, "coordinates": {"latitude": 35.30989, "longitude": -119.0401}, "transactions": ["pickup", "delivery"], "price": "$$", "location": {"address1": "3401 Pacheco Rd", "address2": "Ste D", "address3": "", "city": "Bakersfield", "zip_code": "93313", "country": "US", "state": "CA", "display_address": ["3401 Pacheco Rd", "Ste D", "Bakersfield, CA 93313"]}, "phone": "+16618344227", "display_phone": "(661) 834-4227", "distance": 15655.082715352579}, {"id": "kaY6l4b745OC7GDmmj74Yg", "alias": "el-chavalon-sushi-and-mariscos-arvin", "name": "El Chavalon Sushi & Mariscos", "image_url": "https://s3-media2.fl.yelpcdn.com/bphoto/TB3jsQ6D7iqVC3D7KYYIUg/o.jpg", "is_closed": false, "url": "https://www.yelp.com/biz/el-chavalon-sushi-and-mariscos-arvin?adjust_creative=1Jm_1M8YMBnoB20WncMiZA&utm_campaign=yelp_api_v3&utm_medium=api_v3_business_search&utm_source=1Jm_1M8YMBnoB20WncMiZA", "review_count": 1, "categories": [{"alias": "asianfusion", "title": "Asian Fusion"}, {"alias": "seafood", "title": "Seafood"}, {"alias": "mexican", "title": "Mexican"}], "rating": 5.0, "coordinates": {"latitude": 35.209438608052174, "longitude": -118.824963}, "transactions": [], "location": {"address1": "124 Bear Mountain Blvd", "address2": null, "address3": "", "city": "Arvin", "zip_code": "93203", "country": "US", "state": "CA", "display_address": ["124 Bear Mountain Blvd", "Arvin, CA 93203"]}, "phone": "+16614518096", "display_phone": "(661) 451-8096", "distance": 20500.85181817788}, {"id": "SiEipYoC1-c_zxmx4sFk6g", "alias": "umi-sushi-and-sake-bakersfield-2", "name": "Umi Sushi & Sake", "image_url": "https://s3-media2.fl.yelpcdn.com/bphoto/yPl_sGq6wiHn9VyvUryjjw/o.jpg", "is_closed": false, "url": "https://www.yelp.com/biz/umi-sushi-and-sake-bakersfield-2?adjust_creative=1Jm_1M8YMBnoB20WncMiZA&utm_campaign=yelp_api_v3&utm_medium=api_v3_business_search&utm_source=1Jm_1M8YMBnoB20WncMiZA", "review_count": 326, "categories": [{"alias": "japanese", "title": "Japanese"}, {"alias": "sushi", "title": "Sushi Bars"}], "rating": 4.5, "coordinates": {"latitude": 35.323542, "longitude": -119.12657364571454}, "transactions": ["pickup", "delivery"], "price": "$$", "location": {"address1": "3300 Buena Vista Rd", "address2": "Ste C1", "address3": "", "city": "Bakersfield", "zip_code": "93311", "country": "US", "state": "CA", "display_address": ["3300 Buena Vista Rd", "Ste C1", "Bakersfield, CA 93311"]}, "phone": "+16615648020", "display_phone": "(661) 564-8020", "distance": 18694.477984243375}, {"id": "-xPJ4s-NVzM-Ncn0q6q2vA", "alias": "jin-sushi-downtown-bakersfield", "name": "JIN Sushi- Downtown", "image_url": "https://s3-media3.fl.yelpcdn.com/bphoto/HrbE00HfooWKzj9Yr9FrJA/o.jpg", "is_closed": false, "url": "https://www.yelp.com/biz/jin-sushi-downtown-bakersfield?adjust_creative=1Jm_1M8YMBnoB20WncMiZA&utm_campaign=yelp_api_v3&utm_medium=api_v3_business_search&utm_source=1Jm_1M8YMBnoB20WncMiZA", "review_count": 625, "categories": [{"alias": "japanese", "title": "Japanese"}, {"alias": "sushi", "title": "Sushi Bars"}], "rating": 4.5, "coordinates": {"latitude": 35.3765182, "longitude": -119.0203323}, "transactions": ["pickup", "delivery"], "price": "$$", "location": {"address1": "1600 19th St", "address2": "", "address3": "", "city": "Bakersfield", "zip_code": "93301", "country": "US", "state": "CA", "display_address": ["1600 19th St", "Bakersfield, CA 93301"]}, "phone": "+16614474622", "display_phone": "(661) 447-4622", "distance": 23167.46676042879}, {"id": "aNBmx-Lm4hkqwiXDymVEYA", "alias": "love-sushi-bakersfield-3", "name": "Love Sushi", "image_url": "https://s3-media1.fl.yelpcdn.com/bphoto/uommocfRQdTYMFWcDeP0CQ/o.jpg", "is_closed": false, "url": "https://www.yelp.com/biz/love-sushi-bakersfield-3?adjust_creative=1Jm_1M8YMBnoB20WncMiZA&utm_campaign=yelp_api_v3&utm_medium=api_v3_business_search&utm_source=1Jm_1M8YMBnoB20WncMiZA", "review_count": 189, "categories": [{"alias": "japanese", "title": "Japanese"}, {"alias": "sushi", "title": "Sushi Bars"}], "rating": 3.5, "coordinates": {"latitude": 35.2945541, "longitude": -119.075924}, "transactions": ["pickup", "delivery"], "price": "$$", "location": {"address1": "6515 Panama Ln", "address2": "Ste 101", "address3": "", "city": "Bakersfield", "zip_code": "93313", "country": "US", "state": "CA", "display_address": ["6515 Panama Ln", "Ste 101", "Bakersfield, CA 93313"]}, "phone": "+16613988800", "display_phone": "(661) 398-8800", "distance": 14223.153744357358}, {"id": "cWEt1ugMoOSflybfstGryg", "alias": "ahi-sushi-no-title", "name": "Ahi Sushi", "image_url": "https://s3-media3.fl.yelpcdn.com/bphoto/SHBf1UsdJ-J8jHcuH7Z_rQ/o.jpg", "is_closed": false, "url": "https://www.yelp.com/biz/ahi-sushi-no-title?adjust_creative=1Jm_1M8YMBnoB20WncMiZA&utm_campaign=yelp_api_v3&utm_medium=api_v3_business_search&utm_source=1Jm_1M8YMBnoB20WncMiZA", "review_count": 14, "categories": [{"alias": "sushi", "title": "Sushi Bars"}, {"alias": "japanese", "title": "Japanese"}], "rating": 5.0, "coordinates": {"latitude": 35.38444, "longitude": -119.11042}, "transactions": [], "location": {"address1": "2665 Calloway Dr", "address2": "Ste 212", "address3": "", "city": "Bakersfield", "zip_code": "93312", "country": "US", "state": "CA", "display_address": ["2665 Calloway Dr", "Ste 212", "Bakersfield, CA 93312"]}, "phone": "+16616153320", "display_phone": "(661) 615-3320", "distance": 24659.873497365865}, {"id": "WuTohPMzH-z5uj39ldHPTQ", "alias": "jin-sushi-brimhall-and-allen-bakersfield", "name": "JIN Sushi- Brimhall & Allen", "image_url": "https://s3-media3.fl.yelpcdn.com/bphoto/a8wTBnvfLXKJNGdpYXG_TQ/o.jpg", "is_closed": false, "url": "https://www.yelp.com/biz/jin-sushi-brimhall-and-allen-bakersfield?adjust_creative=1Jm_1M8YMBnoB20WncMiZA&utm_campaign=yelp_api_v3&utm_medium=api_v3_business_search&utm_source=1Jm_1M8YMBnoB20WncMiZA", "review_count": 91, "categories": [{"alias": "sushi", "title": "Sushi Bars"}, {"alias": "japanese", "title": "Japanese"}], "rating": 4.5, "coordinates": {"latitude": 35.369264, "longitude": -119.146288}, "transactions": ["pickup", "delivery"], "price": "$$", "location": {"address1": "12900 Brimhall Rd", "address2": "Ste 100", "address3": "", "city": "Bakersfield", "zip_code": "93314", "country": "US", "state": "CA", "display_address": ["12900 Brimhall Rd", "Ste 100", "Bakersfield, CA 93314"]}, "phone": "+16614593400", "display_phone": "(661) 459-3400", "distance": 24075.19185260813}, {"id": "j_axdv9bGvpBwpIve3H9Og", "alias": "sushi-time-bakersfield-3", "name": "Sushi Time", "image_url": "https://s3-media4.fl.yelpcdn.com/bphoto/81MBgJlD8d3htPtPWzRoRg/o.jpg", "is_closed": false, "url": "https://www.yelp.com/biz/sushi-time-bakersfield-3?adjust_creative=1Jm_1M8YMBnoB20WncMiZA&utm_campaign=yelp_api_v3&utm_medium=api_v3_business_search&utm_source=1Jm_1M8YMBnoB20WncMiZA", "review_count": 249, "categories": [{"alias": "sushi", "title": "Sushi Bars"}, {"alias": "japanese", "title": "Japanese"}], "rating": 4.5, "coordinates": {"latitude": 35.40246, "longitude": -119.09289}, "transactions": ["pickup", "delivery"], "price": "$$", "location": {"address1": "4715 Coffee Rd", "address2": "Ste D", "address3": "", "city": "Bakersfield", "zip_code": "93308", "country": "US", "state": "CA", "display_address": ["4715 Coffee Rd", "Ste D", "Bakersfield, CA 93308"]}, "phone": "+16615878900", "display_phone": "(661) 587-8900", "distance": 26314.643410624252}, {"id": "0awZ2SOozOo-VyZGaLoUOg", "alias": "sushiko-bakersfield", "name": "SushiKo", "image_url": "https://s3-media4.fl.yelpcdn.com/bphoto/2D4daXMzsl6emBmC-OFd8A/o.jpg", "is_closed": false, "url": "https://www.yelp.com/biz/sushiko-bakersfield?adjust_creative=1Jm_1M8YMBnoB20WncMiZA&utm_campaign=yelp_api_v3&utm_medium=api_v3_business_search&utm_source=1Jm_1M8YMBnoB20WncMiZA", "review_count": 347, "categories": [{"alias": "sushi", "title": "Sushi Bars"}, {"alias": "japanese", "title": "Japanese"}], "rating": 4.0, "coordinates": {"latitude": 35.39241, "longitude": -119.09268046134481}, "transactions": ["delivery"], "price": "$$", "location": {"address1": "3615 Coffee Rd", "address2": "Ste 300", "address3": "", "city": "Bakersfield", "zip_code": "93308", "country": "US", "state": "CA", "display_address": ["3615 Coffee Rd", "Ste 300", "Bakersfield, CA 93308"]}, "phone": "+16615886767", "display_phone": "(661) 588-6767", "distance": 25198.85853813528}, {"id": "sG_kwLUPx7DrNA_-naf_6g", "alias": "shoyu-sushi-bakersfield-3", "name": "Shoyu Sushi", "image_url": "https://s3-media4.fl.yelpcdn.com/bphoto/rqRsprm6sssjL9YxhIysbg/o.jpg", "is_closed": false, "url": "https://www.yelp.com/biz/shoyu-sushi-bakersfield-3?adjust_creative=1Jm_1M8YMBnoB20WncMiZA&utm_campaign=yelp_api_v3&utm_medium=api_v3_business_search&utm_source=1Jm_1M8YMBnoB20WncMiZA", "review_count": 169, "categories": [{"alias": "sushi", "title": "Sushi Bars"}], "rating": 4.5, "coordinates": {"latitude": 35.36834, "longitude": -119.11012}, "transactions": [], "price": "$$", "location": {"address1": "1120 Calloway Dr", "address2": "Unit 100", "address3": null, "city": "Bakersfield", "zip_code": "93312", "country": "US", "state": "CA", "display_address": ["1120 Calloway Dr", "Unit 100", "Bakersfield, CA 93312"]}, "phone": "+16612133557", "display_phone": "(661) 213-3557", "distance": 22924.141525840423}, {"id": "gfy1BVFLXwBAqImDMSjSDw", "alias": "shoyu-sushi-bakersfield", "name": "Shoyu Sushi", "image_url": "https://s3-media2.fl.yelpcdn.com/bphoto/APuO_qcX4Gyj4lqFDm90Ww/o.jpg", "is_closed": false, "url": "https://www.yelp.com/biz/shoyu-sushi-bakersfield?adjust_creative=1Jm_1M8YMBnoB20WncMiZA&utm_campaign=yelp_api_v3&utm_medium=api_v3_business_search&utm_source=1Jm_1M8YMBnoB20WncMiZA", "review_count": 311, "categories": [{"alias": "sushi", "title": "Sushi Bars"}, {"alias": "japanese", "title": "Japanese"}], "rating": 4.5, "coordinates": {"latitude": 35.4060186946748, "longitude": -118.966016359627}, "transactions": ["delivery"], "price": "$$", "location": {"address1": "3605 Mount Vernon Ave", "address2": "", "address3": null, "city": "Bakersfield", "zip_code": "93306", "country": "US", "state": "CA", "display_address": ["3605 Mount Vernon Ave", "Bakersfield, CA 93306"]}, "phone": "+16615730123", "display_phone": "(661) 573-0123", "distance": 27299.938058209886}, {"id": "Z1yqsQx4wwQzuRxB5OGy3Q", "alias": "rolls-and-grill-bakersfield", "name": "Rolls And Grill", "image_url": "https://s3-media3.fl.yelpcdn.com/bphoto/MDUbv7xr02YIAiTqPtPJsQ/o.jpg", "is_closed": false, "url": "https://www.yelp.com/biz/rolls-and-grill-bakersfield?adjust_creative=1Jm_1M8YMBnoB20WncMiZA&utm_campaign=yelp_api_v3&utm_medium=api_v3_business_search&utm_source=1Jm_1M8YMBnoB20WncMiZA", "review_count": 405, "categories": [{"alias": "vietnamese", "title": "Vietnamese"}, {"alias": "poke", "title": "Poke"}, {"alias": "asianfusion", "title": "Asian Fusion"}], "rating": 4.5, "coordinates": {"latitude": 35.3392617187207, "longitude": -119.045637885212}, "transactions": ["pickup"], "price": "$$", "location": {"address1": "3803 Ming Ave", "address2": "", "address3": null, "city": "Bakersfield", "zip_code": "93309", "country": "US", "state": "CA", "display_address": ["3803 Ming Ave", "Bakersfield, CA 93309"]}, "phone": "+16617355830", "display_phone": "(661) 735-5830", "distance": 18916.303666073778}, {"id": "fGdOptW-g5_gGOyLacn2fQ", "alias": "ichiban-sushi-bakersfield", "name": "Ichiban Sushi", "image_url": "https://s3-media2.fl.yelpcdn.com/bphoto/_-sstYhvDYqFmfh4dFv0xA/o.jpg", "is_closed": false, "url": "https://www.yelp.com/biz/ichiban-sushi-bakersfield?adjust_creative=1Jm_1M8YMBnoB20WncMiZA&utm_campaign=yelp_api_v3&utm_medium=api_v3_business_search&utm_source=1Jm_1M8YMBnoB20WncMiZA", "review_count": 162, "categories": [{"alias": "japanese", "title": "Japanese"}, {"alias": "sushi", "title": "Sushi Bars"}], "rating": 4.0, "coordinates": {"latitude": 35.3941327, "longitude": -118.9495205}, "transactions": ["delivery"], "price": "$$", "location": {"address1": "2641 Oswell St", "address2": "Ste D", "address3": "", "city": "Bakersfield", "zip_code": "93306", "country": "US", "state": "CA", "display_address": ["2641 Oswell St", "Ste D", "Bakersfield, CA 93306"]}, "phone": "+16618721111", "display_phone": "(661) 872-1111", "distance": 26566.54324615037}, {"id": "mZrJexnhjleU1QKzr4SEkA", "alias": "hi-sushi-bakersfield", "name": "Hi Sushi", "image_url": "https://s3-media1.fl.yelpcdn.com/bphoto/6BNUW5H2fBcWxDJePyCEhw/o.jpg", "is_closed": false, "url": "https://www.yelp.com/biz/hi-sushi-bakersfield?adjust_creative=1Jm_1M8YMBnoB20WncMiZA&utm_campaign=yelp_api_v3&utm_medium=api_v3_business_search&utm_source=1Jm_1M8YMBnoB20WncMiZA", "review_count": 274, "categories": [{"alias": "japanese", "title": "Japanese"}, {"alias": "sushi", "title": "Sushi Bars"}], "rating": 4.0, "coordinates": {"latitude": 35.4011779, "longitude": -119.1094236}, "transactions": ["pickup", "delivery"], "price": "$$", "location": {"address1": "9660 Hageman Rd", "address2": "Ste B", "address3": "", "city": "Bakersfield", "zip_code": "93312", "country": "US", "state": "CA", "display_address": ["9660 Hageman Rd", "Ste B", "Bakersfield, CA 93312"]}, "phone": "+16612133230", "display_phone": "(661) 213-3230", "distance": 26453.23634154996}, {"id": "R2shCmNPyJSO4dmDj2esZQ", "alias": "miyoshi-japanese-restaurant-bakersfield", "name": "Miyoshi Japanese Restaurant", "image_url": "https://s3-media2.fl.yelpcdn.com/bphoto/c8h8WCWEC9ogS03erPxLFw/o.jpg", "is_closed": false, "url": "https://www.yelp.com/biz/miyoshi-japanese-restaurant-bakersfield?adjust_creative=1Jm_1M8YMBnoB20WncMiZA&utm_campaign=yelp_api_v3&utm_medium=api_v3_business_search&utm_source=1Jm_1M8YMBnoB20WncMiZA", "review_count": 284, "categories": [{"alias": "japanese", "title": "Japanese"}, {"alias": "sushi", "title": "Sushi Bars"}], "rating": 4.0, "coordinates": {"latitude": 35.355023, "longitude": -119.094994}, "transactions": ["pickup", "delivery"], "price": "$$", "location": {"address1": "8200 Stockdale Hwy", "address2": "Ste H1A", "address3": "", "city": "Bakersfield", "zip_code": "93311", "country": "US", "state": "CA", "display_address": ["8200 Stockdale Hwy", "Ste H1A", "Bakersfield, CA 93311"]}, "phone": "+16613983397", "display_phone": "(661) 398-3397", "distance": 21159.31878426755}, {"id": "qlb9baQrvXFTnugrh8n-Qw", "alias": "love-sushi-blue-bakersfield", "name": "Love Sushi Blue", "image_url": "https://s3-media4.fl.yelpcdn.com/bphoto/celtMolxleRARtBkskB80Q/o.jpg", "is_closed": false, "url": "https://www.yelp.com/biz/love-sushi-blue-bakersfield?adjust_creative=1Jm_1M8YMBnoB20WncMiZA&utm_campaign=yelp_api_v3&utm_medium=api_v3_business_search&utm_source=1Jm_1M8YMBnoB20WncMiZA", "review_count": 27, "categories": [{"alias": "sushi", "title": "Sushi Bars"}, {"alias": "ramen", "title": "Ramen"}, {"alias": "salad", "title": "Salad"}], "rating": 4.0, "coordinates": {"latitude": 35.39305, "longitude": -118.96835}, "transactions": ["pickup", "delivery"], "location": {"address1": "2658 Mt Vernon Ave", "address2": "Ste B", "address3": "", "city": "Bakersfield", "zip_code": "93306", "country": "US", "state": "CA", "display_address": ["2658 Mt Vernon Ave", "Ste B", "Bakersfield, CA 93306"]}, "phone": "+16614044450", "display_phone": "(661) 404-4450", "distance": 25862.49277953703}, {"id": "ChHTR-RkeAU1NmNxzOBgvQ", "alias": "culichi-town-bakersfield-bakersfield-5", "name": "Culichi Town - Bakersfield", "image_url": "https://s3-media2.fl.yelpcdn.com/bphoto/GIol5PA81dg37hmfp3Pk-w/o.jpg", "is_closed": false, "url": "https://www.yelp.com/biz/culichi-town-bakersfield-bakersfield-5?adjust_creative=1Jm_1M8YMBnoB20WncMiZA&utm_campaign=yelp_api_v3&utm_medium=api_v3_business_search&utm_source=1Jm_1M8YMBnoB20WncMiZA", "review_count": 76, "categories": [{"alias": "mexican", "title": "Mexican"}, {"alias": "sushi", "title": "Sushi Bars"}, {"alias": "seafood", "title": "Seafood"}], "rating": 2.5, "coordinates": {"latitude": 35.31874, "longitude": -119.02593}, "transactions": ["delivery"], "location": {"address1": "2060 White Ln", "address2": null, "address3": "", "city": "Bakersfield", "zip_code": "93304", "country": "US", "state": "CA", "display_address": ["2060 White Ln", "Bakersfield, CA 93304"]}, "phone": "+16614416411", "display_phone": "(661) 441-6411", "distance": 16737.209963239424}, {"id": "JDjVpHESasj45rCuUGNbng", "alias": "kalbi-king-korean-bbq-and-sushi-bakersfield", "name": "Kalbi King Korean BBQ & Sushi", "image_url": "https://s3-media1.fl.yelpcdn.com/bphoto/HiInNRGC9Re6Zu_DDkA3Cg/o.jpg", "is_closed": false, "url": "https://www.yelp.com/biz/kalbi-king-korean-bbq-and-sushi-bakersfield?adjust_creative=1Jm_1M8YMBnoB20WncMiZA&utm_campaign=yelp_api_v3&utm_medium=api_v3_business_search&utm_source=1Jm_1M8YMBnoB20WncMiZA", "review_count": 258, "categories": [{"alias": "korean", "title": "Korean"}, {"alias": "sushi", "title": "Sushi Bars"}, {"alias": "bbq", "title": "Barbeque"}], "rating": 3.5, "coordinates": {"latitude": 35.3169538837584, "longitude": -119.089686681199}, "transactions": ["delivery"], "price": "$$", "location": {"address1": "7800 McNair Ln", "address2": "Ste A", "address3": null, "city": "Bakersfield", "zip_code": "93313", "country": "US", "state": "CA", "display_address": ["7800 McNair Ln", "Ste A", "Bakersfield, CA 93313"]}, "phone": "+16615648380", "display_phone": "(661) 564-8380", "distance": 16927.038060564322}, {"id": "MFz0vR9UqehEy_5zsX6Yvg", "alias": "ichiban-sushi-bakersfield-2", "name": "Ichiban Sushi", "image_url": "https://s3-media1.fl.yelpcdn.com/bphoto/_7qyNja1hGReac0frHpdHA/o.jpg", "is_closed": false, "url": "https://www.yelp.com/biz/ichiban-sushi-bakersfield-2?adjust_creative=1Jm_1M8YMBnoB20WncMiZA&utm_campaign=yelp_api_v3&utm_medium=api_v3_business_search&utm_source=1Jm_1M8YMBnoB20WncMiZA", "review_count": 151, "categories": [{"alias": "japanese", "title": "Japanese"}, {"alias": "sushi", "title": "Sushi Bars"}], "rating": 3.5, "coordinates": {"latitude": 35.32083, "longitude": -119.09133}, "transactions": ["pickup"], "price": "$$", "location": {"address1": "3700 Gosford St", "address2": "Ste A", "address3": "", "city": "Bakersfield", "zip_code": "93309", "country": "US", "state": "CA", "display_address": ["3700 Gosford St", "Ste A", "Bakersfield, CA 93309"]}, "phone": "+16618371111", "display_phone": "(661) 837-1111", "distance": 17383.804704321083}, {"id": "YEieSUXWS_tMkvp0olISkg", "alias": "love-sushi-bakersfield-2", "name": "Love Sushi", "image_url": "https://s3-media4.fl.yelpcdn.com/bphoto/djNxHiS7G6GKGbFZKGyzuw/o.jpg", "is_closed": false, "url": "https://www.yelp.com/biz/love-sushi-bakersfield-2?adjust_creative=1Jm_1M8YMBnoB20WncMiZA&utm_campaign=yelp_api_v3&utm_medium=api_v3_business_search&utm_source=1Jm_1M8YMBnoB20WncMiZA", "review_count": 148, "categories": [{"alias": "japanese", "title": "Japanese"}, {"alias": "sushi", "title": "Sushi Bars"}], "rating": 3.5, "coordinates": {"latitude": 35.3559779130071, "longitude": -119.061747081578}, "transactions": ["pickup", "delivery"], "price": "$$", "location": {"address1": "5620 California Ave", "address2": "", "address3": "", "city": "Bakersfield", "zip_code": "93309", "country": "US", "state": "CA", "display_address": ["5620 California Ave", "Bakersfield, CA 93309"]}, "phone": "+16616380442", "display_phone": "(661) 638-0442", "distance": 20829.869956395105}, {"id": "NyOHNa4FBBruMS4FCAVEOw", "alias": "bento-express-bakersfield", "name": "Bento Express", "image_url": "https://s3-media2.fl.yelpcdn.com/bphoto/-cdcrtna0IAkOlO77jurBg/o.jpg", "is_closed": false, "url": "https://www.yelp.com/biz/bento-express-bakersfield?adjust_creative=1Jm_1M8YMBnoB20WncMiZA&utm_campaign=yelp_api_v3&utm_medium=api_v3_business_search&utm_source=1Jm_1M8YMBnoB20WncMiZA", "review_count": 192, "categories": [{"alias": "sushi", "title": "Sushi Bars"}, {"alias": "japanese", "title": "Japanese"}], "rating": 4.0, "coordinates": {"latitude": 35.37379, "longitude": -119.03829}, "transactions": ["delivery"], "price": "$$", "location": {"address1": "1652 Oak St", "address2": "", "address3": "", "city": "Bakersfield", "zip_code": "93301", "country": "US", "state": "CA", "display_address": ["1652 Oak St", "Bakersfield, CA 93301"]}, "phone": "+16613273777", "display_phone": "(661) 327-3777", "distance": 22754.876264258808}, {"id": "Q3WJVAKaz9WsB2veWQz8XA", "alias": "sushi-hanashi-bakersfield", "name": "Sushi Hanashi", "image_url": "https://s3-media2.fl.yelpcdn.com/bphoto/aXwEaSuuFOWCt2p9uevOXA/o.jpg", "is_closed": false, "url": "https://www.yelp.com/biz/sushi-hanashi-bakersfield?adjust_creative=1Jm_1M8YMBnoB20WncMiZA&utm_campaign=yelp_api_v3&utm_medium=api_v3_business_search&utm_source=1Jm_1M8YMBnoB20WncMiZA", "review_count": 70, "categories": [{"alias": "sushi", "title": "Sushi Bars"}, {"alias": "japanese", "title": "Japanese"}, {"alias": "asianfusion", "title": "Asian Fusion"}], "rating": 4.0, "coordinates": {"latitude": 35.3412, "longitude": -119.05159}, "transactions": ["delivery"], "price": "$$", "location": {"address1": "4412 Ming Ave", "address2": "", "address3": null, "city": "Bakersfield", "zip_code": "93309", "country": "US", "state": "CA", "display_address": ["4412 Ming Ave", "Bakersfield, CA 93309"]}, "phone": "+16613980608", "display_phone": "(661) 398-0608", "distance": 19142.366324781917}, {"id": "kIMw8kAI4OMI0F_oBc-S3A", "alias": "ten-gu-ramen-bakersfield", "name": "Ten Gu Ramen", "image_url": "https://s3-media1.fl.yelpcdn.com/bphoto/7vWL1MBGpN_PS6Ht1cDjhQ/o.jpg", "is_closed": false, "url": "https://www.yelp.com/biz/ten-gu-ramen-bakersfield?adjust_creative=1Jm_1M8YMBnoB20WncMiZA&utm_campaign=yelp_api_v3&utm_medium=api_v3_business_search&utm_source=1Jm_1M8YMBnoB20WncMiZA", "review_count": 173, "categories": [{"alias": "ramen", "title": "Ramen"}], "rating": 4.0, "coordinates": {"latitude": 35.306137, "longitude": -119.092945}, "transactions": ["pickup", "delivery"], "price": "$$", "location": {"address1": "5397 Gosford Rd", "address2": "Ste 200", "address3": null, "city": "Bakersfield", "zip_code": "93313", "country": "US", "state": "CA", "display_address": ["5397 Gosford Rd", "Ste 200", "Bakersfield, CA 93313"]}, "phone": "+16618857346", "display_phone": "(661) 885-7346", "distance": 15840.46106723878}, {"id": "KL8wk9SkZe3rpoYhAltDbg", "alias": "sushinola-bakersfield", "name": "Sushinola", "image_url": "https://s3-media4.fl.yelpcdn.com/bphoto/WAAOjKAN47KrGTEVv7pY4Q/o.jpg", "is_closed": false, "url": "https://www.yelp.com/biz/sushinola-bakersfield?adjust_creative=1Jm_1M8YMBnoB20WncMiZA&utm_campaign=yelp_api_v3&utm_medium=api_v3_business_search&utm_source=1Jm_1M8YMBnoB20WncMiZA", "review_count": 62, "categories": [{"alias": "foodtrucks", "title": "Food Trucks"}, {"alias": "sushi", "title": "Sushi Bars"}], "rating": 3.5, "coordinates": {"latitude": 35.3756473980377, "longitude": -118.952128713373}, "transactions": ["delivery"], "price": "$$", "location": {"address1": "2945 Niles St", "address2": "", "address3": "", "city": "Bakersfield", "zip_code": "93306", "country": "US", "state": "CA", "display_address": ["2945 Niles St", "Bakersfield, CA 93306"]}, "phone": "+16614276323", "display_phone": "(661) 427-6323", "distance": 24464.294100267038}, {"id": "1UbsmEl-u7yFbyOHs4sbbQ", "alias": "kanpai-bakersfield", "name": "Kanpai", "image_url": "https://s3-media4.fl.yelpcdn.com/bphoto/AsUypZ-cDg-KPvtov61mrA/o.jpg", "is_closed": false, "url": "https://www.yelp.com/biz/kanpai-bakersfield?adjust_creative=1Jm_1M8YMBnoB20WncMiZA&utm_campaign=yelp_api_v3&utm_medium=api_v3_business_search&utm_source=1Jm_1M8YMBnoB20WncMiZA", "review_count": 329, "categories": [{"alias": "japanese", "title": "Japanese"}, {"alias": "lounges", "title": "Lounges"}, {"alias": "sushi", "title": "Sushi Bars"}], "rating": 3.5, "coordinates": {"latitude": 35.3705435658702, "longitude": -119.10918660423}, "transactions": ["delivery"], "price": "$$", "location": {"address1": "9500 Brimhall Rd", "address2": "Ste 501", "address3": "", "city": "Bakersfield", "zip_code": "93312", "country": "US", "state": "CA", "display_address": ["9500 Brimhall Rd", "Ste 501", "Bakersfield, CA 93312"]}, "phone": "+16615870665", "display_phone": "(661) 587-0665", "distance": 23137.91912388638}, {"id": "EJJGQ5Nv7en62gCExqvbfA", "alias": "o-ramen-bakersfield-5", "name": "O Ramen", "image_url": "https://s3-media2.fl.yelpcdn.com/bphoto/N7skB7Yv_e00l02IbZ3w7g/o.jpg", "is_closed": false, "url": "https://www.yelp.com/biz/o-ramen-bakersfield-5?adjust_creative=1Jm_1M8YMBnoB20WncMiZA&utm_campaign=yelp_api_v3&utm_medium=api_v3_business_search&utm_source=1Jm_1M8YMBnoB20WncMiZA", "review_count": 541, "categories": [{"alias": "ramen", "title": "Ramen"}, {"alias": "noodles", "title": "Noodles"}, {"alias": "desserts", "title": "Desserts"}], "rating": 4.0, "coordinates": {"latitude": 35.3373447496433, "longitude": -119.059928294812}, "transactions": ["delivery"], "price": "$$", "location": {"address1": "5139 Ming Ave", "address2": "", "address3": null, "city": "Bakersfield", "zip_code": "93309", "country": "US", "state": "CA", "display_address": ["5139 Ming Ave", "Bakersfield, CA 93309"]}, "phone": "+16616656632", "display_phone": "(661) 665-6632", "distance": 18751.45549738204}, {"id": "rAj77A9PyTrxZMuocJSSBA", "alias": "teriyaki-bowl-bakersfield-2", "name": "Teriyaki Bowl", "image_url": "https://s3-media3.fl.yelpcdn.com/bphoto/eVlPnwNadjphb1w9NPPdeA/o.jpg", "is_closed": false, "url": "https://www.yelp.com/biz/teriyaki-bowl-bakersfield-2?adjust_creative=1Jm_1M8YMBnoB20WncMiZA&utm_campaign=yelp_api_v3&utm_medium=api_v3_business_search&utm_source=1Jm_1M8YMBnoB20WncMiZA", "review_count": 50, "categories": [{"alias": "chinese", "title": "Chinese"}], "rating": 3.0, "coordinates": {"latitude": 35.2969617971716, "longitude": -119.040872454643}, "transactions": ["delivery"], "price": "$", "location": {"address1": "3400 Pamama Ln", "address2": "Ste C", "address3": "", "city": "Bakersfield", "zip_code": "93313", "country": "US", "state": "CA", "display_address": ["3400 Pamama Ln", "Ste C", "Bakersfield, CA 93313"]}, "phone": "+16618345123", "display_phone": "(661) 834-5123", "distance": 14217.908195240232}, {"id": "1lu7NxCubptAmfsY9sUUyQ", "alias": "king-roll-bakersfield", "name": "King Roll", "image_url": "https://s3-media3.fl.yelpcdn.com/bphoto/kqcvUB1NsY_bdMudLTZUNA/o.jpg", "is_closed": false, "url": "https://www.yelp.com/biz/king-roll-bakersfield?adjust_creative=1Jm_1M8YMBnoB20WncMiZA&utm_campaign=yelp_api_v3&utm_medium=api_v3_business_search&utm_source=1Jm_1M8YMBnoB20WncMiZA", "review_count": 1, "categories": [{"alias": "foodtrucks", "title": "Food Trucks"}, {"alias": "sushi", "title": "Sushi Bars"}], "rating": 5.0, "coordinates": {"latitude": 35.35382, "longitude": -119.04383}, "transactions": [], "location": {"address1": "3601 Stockdale Hwy", "address2": null, "address3": "", "city": "Bakersfield", "zip_code": "93309", "country": "US", "state": "CA", "display_address": ["3601 Stockdale Hwy", "Bakersfield, CA 93309"]}, "phone": "+14244051193", "display_phone": "(424) 405-1193", "distance": 20526.897873558923}, {"id": "g3o-dlcEvBXctMQEX8xmiQ", "alias": "bocados-sushi-bar-bakersfield", "name": "Bocados Sushi Bar", "image_url": "https://s3-media2.fl.yelpcdn.com/bphoto/Nt8Vv71R8rJx9BgEE5VUEA/o.jpg", "is_closed": false, "url": "https://www.yelp.com/biz/bocados-sushi-bar-bakersfield?adjust_creative=1Jm_1M8YMBnoB20WncMiZA&utm_campaign=yelp_api_v3&utm_medium=api_v3_business_search&utm_source=1Jm_1M8YMBnoB20WncMiZA", "review_count": 253, "categories": [{"alias": "sushi", "title": "Sushi Bars"}], "rating": 3.5, "coordinates": {"latitude": 35.3701628, "longitude": -119.0919954}, "transactions": ["delivery"], "price": "$$", "location": {"address1": "1300 Coffee Rd", "address2": "", "address3": null, "city": "Bakersfield", "zip_code": "93308", "country": "US", "state": "CA", "display_address": ["1300 Coffee Rd", "Bakersfield, CA 93308"]}, "phone": "+16612350855", "display_phone": "(661) 235-0855", "distance": 22693.677440908086}, {"id": "7b9NYGN3rsRSV_M5X6-8Kw", "alias": "sushilon-sushi-y-mariscos-bakersfield-2", "name": "Sushilon Sushi Y Mariscos", "image_url": "https://s3-media4.fl.yelpcdn.com/bphoto/fH-OHPTc-qySjQQEy3t6gw/o.jpg", "is_closed": false, "url": "https://www.yelp.com/biz/sushilon-sushi-y-mariscos-bakersfield-2?adjust_creative=1Jm_1M8YMBnoB20WncMiZA&utm_campaign=yelp_api_v3&utm_medium=api_v3_business_search&utm_source=1Jm_1M8YMBnoB20WncMiZA", "review_count": 58, "categories": [{"alias": "sushi", "title": "Sushi Bars"}, {"alias": "mexican", "title": "Mexican"}, {"alias": "seafood", "title": "Seafood"}], "rating": 3.5, "coordinates": {"latitude": 35.37094728396, "longitude": -118.967752242544}, "transactions": ["pickup", "delivery"], "price": "$$", "location": {"address1": "2199 Edison Hwy", "address2": "", "address3": null, "city": "Bakersfield", "zip_code": "93305", "country": "US", "state": "CA", "display_address": ["2199 Edison Hwy", "Bakersfield, CA 93305"]}, "phone": "+18052682544", "display_phone": "(805) 268-2544", "distance": 23512.66398185365}, {"id": "0TyzxLHTHuqF8E47J6scXg", "alias": "love-sushi-bakersfield", "name": "Love Sushi", "image_url": "https://s3-media3.fl.yelpcdn.com/bphoto/-TNiMUoTo6JWAOaWSX_rKQ/o.jpg", "is_closed": false, "url": "https://www.yelp.com/biz/love-sushi-bakersfield?adjust_creative=1Jm_1M8YMBnoB20WncMiZA&utm_campaign=yelp_api_v3&utm_medium=api_v3_business_search&utm_source=1Jm_1M8YMBnoB20WncMiZA", "review_count": 445, "categories": [{"alias": "sushi", "title": "Sushi Bars"}, {"alias": "japanese", "title": "Japanese"}], "rating": 3.0, "coordinates": {"latitude": 35.3953437805176, "longitude": -119.091651916504}, "transactions": ["pickup", "delivery"], "price": "$$", "location": {"address1": "3940 Coffee Rd", "address2": "", "address3": "", "city": "Bakersfield", "zip_code": "93308", "country": "US", "state": "CA", "display_address": ["3940 Coffee Rd", "Bakersfield, CA 93308"]}, "phone": "+16615874245", "display_phone": "(661) 587-4245", "distance": 25518.926664605613}, {"id": "J0gFu9t0RTw-1NZzpvutTQ", "alias": "ten-gu-ramen-bakersfield-2", "name": "Ten Gu Ramen", "image_url": "https://s3-media4.fl.yelpcdn.com/bphoto/0_gqIHSYRc5ber6rUrOXVw/o.jpg", "is_closed": false, "url": "https://www.yelp.com/biz/ten-gu-ramen-bakersfield-2?adjust_creative=1Jm_1M8YMBnoB20WncMiZA&utm_campaign=yelp_api_v3&utm_medium=api_v3_business_search&utm_source=1Jm_1M8YMBnoB20WncMiZA", "review_count": 22, "categories": [{"alias": "ramen", "title": "Ramen"}, {"alias": "sushi", "title": "Sushi Bars"}, {"alias": "seafood", "title": "Seafood"}], "rating": 4.5, "coordinates": {"latitude": 35.400799, "longitude": -119.090506}, "transactions": ["pickup", "delivery"], "price": "$$", "location": {"address1": "4550 Coffee Rd", "address2": "Unit D", "address3": "", "city": "Bakersfield", "zip_code": "93308", "country": "US", "state": "CA", "display_address": ["4550 Coffee Rd", "Unit D", "Bakersfield, CA 93308"]}, "phone": "+16618296565", "display_phone": "(661) 829-6565", "distance": 26086.083776346488}, {"id": "8vON38qyzvPjhVlr2Kep6A", "alias": "killer-poke-bakersfield-3", "name": "Killer Poke", "image_url": "https://s3-media1.fl.yelpcdn.com/bphoto/MAp1NhRtfhhHmupsMHPvGw/o.jpg", "is_closed": false, "url": "https://www.yelp.com/biz/killer-poke-bakersfield-3?adjust_creative=1Jm_1M8YMBnoB20WncMiZA&utm_campaign=yelp_api_v3&utm_medium=api_v3_business_search&utm_source=1Jm_1M8YMBnoB20WncMiZA", "review_count": 240, "categories": [{"alias": "hawaiian", "title": "Hawaiian"}, {"alias": "poke", "title": "Poke"}, {"alias": "sushi", "title": "Sushi Bars"}], "rating": 4.5, "coordinates": {"latitude": 35.3764899, "longitude": -119.01319}, "transactions": ["pickup", "delivery"], "price": "$$", "location": {"address1": "1002 19th St", "address2": "", "address3": null, "city": "Bakersfield", "zip_code": "93301", "country": "US", "state": "CA", "display_address": ["1002 19th St", "Bakersfield, CA 93301"]}, "phone": "+16614045086", "display_phone": "(661) 404-5086", "distance": 23223.263765585747}, {"id": "9jO77RBGbkhAowgGzM47kg", "alias": "kyoto-japanese-grill-bakersfield", "name": "Kyoto Japanese Grill", "image_url": "https://s3-media1.fl.yelpcdn.com/bphoto/4dH-sYgv5D5lghtR6ND3wg/o.jpg", "is_closed": false, "url": "https://www.yelp.com/biz/kyoto-japanese-grill-bakersfield?adjust_creative=1Jm_1M8YMBnoB20WncMiZA&utm_campaign=yelp_api_v3&utm_medium=api_v3_business_search&utm_source=1Jm_1M8YMBnoB20WncMiZA", "review_count": 53, "categories": [{"alias": "japanese", "title": "Japanese"}], "rating": 4.5, "coordinates": {"latitude": 35.348871, "longitude": -119.1280652}, "transactions": ["pickup", "delivery"], "location": {"address1": "11313 Stockdale Hwy", "address2": "", "address3": null, "city": "Bakersfield", "zip_code": "93311", "country": "US", "state": "CA", "display_address": ["11313 Stockdale Hwy", "Bakersfield, CA 93311"]}, "phone": "+16613260305", "display_phone": "(661) 326-0305", "distance": 21310.243049408036}, {"id": "IywUHUC3ocCKr6X8tb5rUw", "alias": "kamisama-ramen-bakersfield-6", "name": "Kamisama Ramen", "image_url": "https://s3-media1.fl.yelpcdn.com/bphoto/TD5kZu0U07iwJsx69ProMA/o.jpg", "is_closed": false, "url": "https://www.yelp.com/biz/kamisama-ramen-bakersfield-6?adjust_creative=1Jm_1M8YMBnoB20WncMiZA&utm_campaign=yelp_api_v3&utm_medium=api_v3_business_search&utm_source=1Jm_1M8YMBnoB20WncMiZA", "review_count": 55, "categories": [{"alias": "ramen", "title": "Ramen"}], "rating": 3.5, "coordinates": {"latitude": 35.41234415227465, "longitude": -119.1113437728027}, "transactions": ["delivery"], "price": "$$", "location": {"address1": "9821 Olive Dr", "address2": "", "address3": null, "city": "Bakersfield", "zip_code": "93312", "country": "US", "state": "CA", "display_address": ["9821 Olive Dr", "Bakersfield, CA 93312"]}, "phone": "+16612821803", "display_phone": "(661) 282-1803", "distance": 27702.82054390486}, {"id": "PN09zabX0jn94UJ_L9WBhw", "alias": "remix-asian-kitchen-and-ramen-bakersfield-2", "name": "ReMix Asian Kitchen & Ramen", "image_url": "https://s3-media3.fl.yelpcdn.com/bphoto/1rG3G33FohISTPm_Cv4vbA/o.jpg", "is_closed": false, "url": "https://www.yelp.com/biz/remix-asian-kitchen-and-ramen-bakersfield-2?adjust_creative=1Jm_1M8YMBnoB20WncMiZA&utm_campaign=yelp_api_v3&utm_medium=api_v3_business_search&utm_source=1Jm_1M8YMBnoB20WncMiZA", "review_count": 310, "categories": [{"alias": "hawaiian", "title": "Hawaiian"}, {"alias": "korean", "title": "Korean"}, {"alias": "ramen", "title": "Ramen"}], "rating": 4.5, "coordinates": {"latitude": 35.35555, "longitude": -119.10713}, "transactions": ["delivery"], "price": "$$", "location": {"address1": "9450 Stockdale Hwy", "address2": "Ste 109", "address3": "", "city": "Bakersfield", "zip_code": "93311", "country": "US", "state": "CA", "display_address": ["9450 Stockdale Hwy", "Ste 109", "Bakersfield, CA 93311"]}, "phone": "+16618479331", "display_phone": "(661) 847-9331", "distance": 21497.134304356856}, {"id": "WgTXZBszXishxQ4JMGjcLA", "alias": "pokeland-bakersfield-2", "name": "Pokeland", "image_url": "https://s3-media2.fl.yelpcdn.com/bphoto/2k1iylTm3Pr2Oi9rgpiVPg/o.jpg", "is_closed": false, "url": "https://www.yelp.com/biz/pokeland-bakersfield-2?adjust_creative=1Jm_1M8YMBnoB20WncMiZA&utm_campaign=yelp_api_v3&utm_medium=api_v3_business_search&utm_source=1Jm_1M8YMBnoB20WncMiZA", "review_count": 193, "categories": [{"alias": "poke", "title": "Poke"}], "rating": 4.0, "coordinates": {"latitude": 35.3524, "longitude": -119.11921}, "transactions": ["pickup", "delivery"], "price": "$$", "location": {"address1": "10500 Stockdale Hwy", "address2": "Ste 400", "address3": "", "city": "Bakersfield", "zip_code": "93311", "country": "US", "state": "CA", "display_address": ["10500 Stockdale Hwy", "Ste 400", "Bakersfield, CA 93311"]}, "phone": "+16618859263", "display_phone": "(661) 885-9263", "distance": 21474.698888099807}, {"id": "T4gAurcMExbQZFO5erVaPw", "alias": "chefs-choice-noodle-bar-bakersfield", "name": "Chef's Choice Noodle Bar", "image_url": "https://s3-media2.fl.yelpcdn.com/bphoto/nbsIf-6BYDGLfOBEw4HQgA/o.jpg", "is_closed": false, "url": "https://www.yelp.com/biz/chefs-choice-noodle-bar-bakersfield?adjust_creative=1Jm_1M8YMBnoB20WncMiZA&utm_campaign=yelp_api_v3&utm_medium=api_v3_business_search&utm_source=1Jm_1M8YMBnoB20WncMiZA", "review_count": 658, "categories": [{"alias": "thai", "title": "Thai"}, {"alias": "asianfusion", "title": "Asian Fusion"}, {"alias": "noodles", "title": "Noodles"}], "rating": 4.0, "coordinates": {"latitude": 35.34190092401925, "longitude": -119.10523743128608}, "transactions": ["pickup", "delivery"], "price": "$$", "location": {"address1": "9000 Ming Ave", "address2": "Ste J-2", "address3": "", "city": "Bakersfield", "zip_code": "93311", "country": "US", "state": "CA", "display_address": ["9000 Ming Ave", "Ste J-2", "Bakersfield, CA 93311"]}, "phone": "+16613251234", "display_phone": "(661) 325-1234", "distance": 19970.597763412006}, {"id": "Ema5crBs1ymXG4s-Nzz9qw", "alias": "yard-house-bakersfield-2", "name": "Yard House", "image_url": "https://s3-media3.fl.yelpcdn.com/bphoto/ldJnP6_9j_mF2kMCK25Lmg/o.jpg", "is_closed": false, "url": "https://www.yelp.com/biz/yard-house-bakersfield-2?adjust_creative=1Jm_1M8YMBnoB20WncMiZA&utm_campaign=yelp_api_v3&utm_medium=api_v3_business_search&utm_source=1Jm_1M8YMBnoB20WncMiZA", "review_count": 328, "categories": [{"alias": "newamerican", "title": "American (New)"}, {"alias": "vegetarian", "title": "Vegetarian"}, {"alias": "bars", "title": "Bars"}], "rating": 4.0, "coordinates": {"latitude": 35.35315284528274, "longitude": -119.116891}, "transactions": ["pickup", "delivery"], "price": "$$", "location": {"address1": "10308 Stockdale Hwy", "address2": "", "address3": null, "city": "Bakersfield", "zip_code": "93311", "country": "US", "state": "CA", "display_address": ["10308 Stockdale Hwy", "Bakersfield, CA 93311"]}, "phone": "+16616641014", "display_phone": "(661) 664-1014", "distance": 21473.88110223964}, {"id": "IK1eVlN8Rb1B_N5eBNJIqg", "alias": "fusion-teriyaki-bowl-bakersfield-3", "name": "Fusion Teriyaki Bowl", "image_url": "https://s3-media2.fl.yelpcdn.com/bphoto/TVMlpMnUk5GhAEnEG7Usxw/o.jpg", "is_closed": false, "url": "https://www.yelp.com/biz/fusion-teriyaki-bowl-bakersfield-3?adjust_creative=1Jm_1M8YMBnoB20WncMiZA&utm_campaign=yelp_api_v3&utm_medium=api_v3_business_search&utm_source=1Jm_1M8YMBnoB20WncMiZA", "review_count": 97, "categories": [{"alias": "chinese", "title": "Chinese"}, {"alias": "japanese", "title": "Japanese"}], "rating": 3.5, "coordinates": {"latitude": 35.4112406626563, "longitude": -119.046780019537}, "transactions": ["pickup", "delivery"], "price": "$", "location": {"address1": "1215 Olive Dr", "address2": "", "address3": "", "city": "Bakersfield", "zip_code": "93308", "country": "US", "state": "CA", "display_address": ["1215 Olive Dr", "Bakersfield, CA 93308"]}, "phone": "+16613918788", "display_phone": "(661) 391-8788", "distance": 26920.355571424978}, {"id": "8uPVD81gdV3tTT2eNOpILg", "alias": "tofu-house-korean-bbq-bakersfield", "name": "Tofu House - Korean BBQ", "image_url": "https://s3-media3.fl.yelpcdn.com/bphoto/ZqXi8ONIxdS5s6HAKI8MuQ/o.jpg", "is_closed": false, "url": "https://www.yelp.com/biz/tofu-house-korean-bbq-bakersfield?adjust_creative=1Jm_1M8YMBnoB20WncMiZA&utm_campaign=yelp_api_v3&utm_medium=api_v3_business_search&utm_source=1Jm_1M8YMBnoB20WncMiZA", "review_count": 348, "categories": [{"alias": "korean", "title": "Korean"}, {"alias": "bbq", "title": "Barbeque"}], "rating": 4.0, "coordinates": {"latitude": 35.3572141349804, "longitude": -119.061757139862}, "transactions": ["delivery"], "price": "$$", "location": {"address1": "5550 California Ave", "address2": "Ste 106", "address3": "", "city": "Bakersfield", "zip_code": "93309", "country": "US", "state": "CA", "display_address": ["5550 California Ave", "Ste 106", "Bakersfield, CA 93309"]}, "phone": "+16618647782", "display_phone": "(661) 864-7782", "distance": 20967.036654624193}, {"id": "TIR_gEdsa4lB9TRklh0eoQ", "alias": "toro-fusion-grill-and-bar-bakersfield", "name": "Toro Fusion Grill & Bar", "image_url": "https://s3-media4.fl.yelpcdn.com/bphoto/FXivTVfuFw7M6xJsa57Ayg/o.jpg", "is_closed": false, "url": "https://www.yelp.com/biz/toro-fusion-grill-and-bar-bakersfield?adjust_creative=1Jm_1M8YMBnoB20WncMiZA&utm_campaign=yelp_api_v3&utm_medium=api_v3_business_search&utm_source=1Jm_1M8YMBnoB20WncMiZA", "review_count": 312, "categories": [{"alias": "japanese", "title": "Japanese"}, {"alias": "sushi", "title": "Sushi Bars"}, {"alias": "korean", "title": "Korean"}], "rating": 3.0, "coordinates": {"latitude": 35.37585764911861, "longitude": -119.01628692923272}, "transactions": ["delivery", "pickup"], "price": "$$", "location": {"address1": "1818 L St", "address2": "", "address3": "", "city": "Bakersfield", "zip_code": "93301", "country": "US", "state": "CA", "display_address": ["1818 L St", "Bakersfield, CA 93301"]}, "phone": "+16616637878", "display_phone": "(661) 663-7878", "distance": 23133.91936298788}, {"id": "wnGOFEpWMq9B58d8D2VkXA", "alias": "shogun-palace-bakersfield", "name": "Shogun Palace", "image_url": "https://s3-media1.fl.yelpcdn.com/bphoto/DQ7aG6LVUtf-81M04V6Sjw/o.jpg", "is_closed": false, "url": "https://www.yelp.com/biz/shogun-palace-bakersfield?adjust_creative=1Jm_1M8YMBnoB20WncMiZA&utm_campaign=yelp_api_v3&utm_medium=api_v3_business_search&utm_source=1Jm_1M8YMBnoB20WncMiZA", "review_count": 240, "categories": [{"alias": "sushi", "title": "Sushi Bars"}, {"alias": "teppanyaki", "title": "Teppanyaki"}], "rating": 2.5, "coordinates": {"latitude": 35.3580073, "longitude": -119.0613763}, "transactions": ["delivery", "pickup"], "price": "$$", "location": {"address1": "5498 California Ave", "address2": "", "address3": "", "city": "Bakersfield", "zip_code": "93309", "country": "US", "state": "CA", "display_address": ["5498 California Ave", "Bakersfield, CA 93309"]}, "phone": "+16613250007", "display_phone": "(661) 325-0007", "distance": 21057.54556544686}, {"id": "kubiyfIjf4_tSTWSnD6TwA", "alias": "tokyo-garden-bakersfield", "name": "Tokyo Garden", "image_url": "https://s3-media2.fl.yelpcdn.com/bphoto/S9p_OLwIADXaixak8L3Egw/o.jpg", "is_closed": false, "url": "https://www.yelp.com/biz/tokyo-garden-bakersfield?adjust_creative=1Jm_1M8YMBnoB20WncMiZA&utm_campaign=yelp_api_v3&utm_medium=api_v3_business_search&utm_source=1Jm_1M8YMBnoB20WncMiZA", "review_count": 234, "categories": [{"alias": "japanese", "title": "Japanese"}, {"alias": "sushi", "title": "Sushi Bars"}, {"alias": "steak", "title": "Steakhouses"}], "rating": 4.0, "coordinates": {"latitude": 35.3393351, "longitude": -119.0500188}, "transactions": ["delivery", "pickup"], "price": "$$", "location": {"address1": "4149 Ming Ave", "address2": "", "address3": "", "city": "Bakersfield", "zip_code": "93309", "country": "US", "state": "CA", "display_address": ["4149 Ming Ave", "Bakersfield, CA 93309"]}, "phone": "+16618357874", "display_phone": "(661) 835-7874", "distance": 18775.92564541236}, {"id": "j_AxOnzKmYl1cYeyAD1tPg", "alias": "hon-ramen-bakersfield-2", "name": "Hon Ramen", "image_url": "https://s3-media2.fl.yelpcdn.com/bphoto/XfYAY7-vk9nvyo0f528jwg/o.jpg", "is_closed": false, "url": "https://www.yelp.com/biz/hon-ramen-bakersfield-2?adjust_creative=1Jm_1M8YMBnoB20WncMiZA&utm_campaign=yelp_api_v3&utm_medium=api_v3_business_search&utm_source=1Jm_1M8YMBnoB20WncMiZA", "review_count": 153, "categories": [{"alias": "ramen", "title": "Ramen"}, {"alias": "sushi", "title": "Sushi Bars"}], "rating": 4.0, "coordinates": {"latitude": 35.37608, "longitude": -119.01823}, "transactions": ["delivery", "pickup"], "price": "$$", "location": {"address1": "1419 19th St", "address2": "Ste A", "address3": "", "city": "Bakersfield", "zip_code": "93301", "country": "US", "state": "CA", "display_address": ["1419 19th St", "Ste A", "Bakersfield, CA 93301"]}, "phone": "+16615584000", "display_phone": "(661) 558-4000", "distance": 23126.260924830334}, {"id": "8Z1e_ahgoqRm1be_4hkrig", "alias": "ono-hawaiian-bbq-bakersfield", "name": "Ono Hawaiian BBQ", "image_url": "https://s3-media2.fl.yelpcdn.com/bphoto/QYWMbtyC4krcVgFZRyAg8A/o.jpg", "is_closed": false, "url": "https://www.yelp.com/biz/ono-hawaiian-bbq-bakersfield?adjust_creative=1Jm_1M8YMBnoB20WncMiZA&utm_campaign=yelp_api_v3&utm_medium=api_v3_business_search&utm_source=1Jm_1M8YMBnoB20WncMiZA", "review_count": 147, "categories": [{"alias": "hawaiian", "title": "Hawaiian"}, {"alias": "bbq", "title": "Barbeque"}], "rating": 4.0, "coordinates": {"latitude": 35.39218, "longitude": -118.967931}, "transactions": ["delivery", "pickup"], "price": "$$", "location": {"address1": "2630 Mount Vernon Ave", "address2": "Ste 300", "address3": "", "city": "Bakersfield", "zip_code": "93306", "country": "US", "state": "CA", "display_address": ["2630 Mount Vernon Ave", "Ste 300", "Bakersfield, CA 93306"]}, "phone": "+16618713788", "display_phone": "(661) 871-3788", "distance": 25770.853857240927}, {"id": "8Ln81MRE7qR-UMdLvu4pmg", "alias": "mama-roomba-bakersfield", "name": "Mama Roomba", "image_url": "https://s3-media3.fl.yelpcdn.com/bphoto/NteShh1KufSSeixgOxyhZg/o.jpg", "is_closed": false, "url": "https://www.yelp.com/biz/mama-roomba-bakersfield?adjust_creative=1Jm_1M8YMBnoB20WncMiZA&utm_campaign=yelp_api_v3&utm_medium=api_v3_business_search&utm_source=1Jm_1M8YMBnoB20WncMiZA", "review_count": 493, "categories": [{"alias": "caribbean", "title": "Caribbean"}, {"alias": "tapas", "title": "Tapas Bars"}, {"alias": "seafood", "title": "Seafood"}], "rating": 4.0, "coordinates": {"latitude": 35.37569, "longitude": -119.01981}, "transactions": ["delivery"], "price": "$$", "location": {"address1": "1814 Eye St", "address2": null, "address3": "", "city": "Bakersfield", "zip_code": "93301", "country": "US", "state": "CA", "display_address": ["1814 Eye St", "Bakersfield, CA 93301"]}, "phone": "+16613226262", "display_phone": "(661) 322-6262", "distance": 23081.818356532873}, {"id": "Qp_HACOVSrr-gHIO7Xsh5A", "alias": "kamisama-ramen-bakersfield-4", "name": "Kamisama Ramen", "image_url": "https://s3-media3.fl.yelpcdn.com/bphoto/WtsHtS3aIMTrdIZe9ADfFQ/o.jpg", "is_closed": false, "url": "https://www.yelp.com/biz/kamisama-ramen-bakersfield-4?adjust_creative=1Jm_1M8YMBnoB20WncMiZA&utm_campaign=yelp_api_v3&utm_medium=api_v3_business_search&utm_source=1Jm_1M8YMBnoB20WncMiZA", "review_count": 338, "categories": [{"alias": "ramen", "title": "Ramen"}, {"alias": "sushi", "title": "Sushi Bars"}], "rating": 3.5, "coordinates": {"latitude": 35.371067, "longitude": -119.109735}, "transactions": ["delivery"], "price": "$$", "location": {"address1": "1400 Calloway Dr", "address2": "Ste 101", "address3": "", "city": "Bakersfield", "zip_code": "93312", "country": "US", "state": "CA", "display_address": ["1400 Calloway Dr", "Ste 101", "Bakersfield, CA 93312"]}, "phone": "+16615879202", "display_phone": "(661) 587-9202", "distance": 23206.789582708676}, {"id": "dfXKjX5uetWdOaqgBbw30Q", "alias": "24th-street-poke-bakersfield-2", "name": "24th Street Poke", "image_url": "https://s3-media3.fl.yelpcdn.com/bphoto/5ZB2zuGbFPCRMW-D0WB4lw/o.jpg", "is_closed": false, "url": "https://www.yelp.com/biz/24th-street-poke-bakersfield-2?adjust_creative=1Jm_1M8YMBnoB20WncMiZA&utm_campaign=yelp_api_v3&utm_medium=api_v3_business_search&utm_source=1Jm_1M8YMBnoB20WncMiZA", "review_count": 108, "categories": [{"alias": "poke", "title": "Poke"}], "rating": 4.5, "coordinates": {"latitude": 35.38062, "longitude": -119.01582}, "transactions": ["delivery", "pickup"], "price": "$$", "location": {"address1": "1201 24th St", "address2": "Ste D140", "address3": null, "city": "Bakersfield", "zip_code": "93301", "country": "US", "state": "CA", "display_address": ["1201 24th St", "Ste D140", "Bakersfield, CA 93301"]}, "phone": "+16613744435", "display_phone": "(661) 374-4435", "distance": 23625.130201883185}, {"id": "Mx8e_yvRbC9EZgKtzBDXag", "alias": "sakura-buffet-bakersfield", "name": "Sakura Buffet", "image_url": "https://s3-media1.fl.yelpcdn.com/bphoto/vs5nK03hqc6ya0Cg2bIRAA/o.jpg", "is_closed": false, "url": "https://www.yelp.com/biz/sakura-buffet-bakersfield?adjust_creative=1Jm_1M8YMBnoB20WncMiZA&utm_campaign=yelp_api_v3&utm_medium=api_v3_business_search&utm_source=1Jm_1M8YMBnoB20WncMiZA", "review_count": 178, "categories": [{"alias": "chinese", "title": "Chinese"}, {"alias": "japanese", "title": "Japanese"}, {"alias": "mexican", "title": "Mexican"}], "rating": 3.0, "coordinates": {"latitude": 35.34058, "longitude": -119.04282}, "transactions": [], "price": "$$", "location": {"address1": "3632 Ming Ave", "address2": "", "address3": "", "city": "Bakersfield", "zip_code": "93309", "country": "US", "state": "CA", "display_address": ["3632 Ming Ave", "Bakersfield, CA 93309"]}, "phone": "+16618378999", "display_phone": "(661) 837-8999", "distance": 19067.59095623505}, {"id": "Z0kAL0724AAwef9_qrW74g", "alias": "the-poke-express-bakersfield-2", "name": "The Poke Express", "image_url": "https://s3-media2.fl.yelpcdn.com/bphoto/pQX4iGPpADnTweuZ42D2FQ/o.jpg", "is_closed": false, "url": "https://www.yelp.com/biz/the-poke-express-bakersfield-2?adjust_creative=1Jm_1M8YMBnoB20WncMiZA&utm_campaign=yelp_api_v3&utm_medium=api_v3_business_search&utm_source=1Jm_1M8YMBnoB20WncMiZA", "review_count": 43, "categories": [{"alias": "hawaiian", "title": "Hawaiian"}, {"alias": "poke", "title": "Poke"}, {"alias": "popuprestaurants", "title": "Pop-Up Restaurants"}], "rating": 4.5, "coordinates": {"latitude": 35.313846653182836, "longitude": -119.06800807122454}, "transactions": [], "price": "$$", "location": {"address1": null, "address2": null, "address3": "", "city": "Bakersfield", "zip_code": "93313", "country": "US", "state": "CA", "display_address": ["Bakersfield, CA 93313"]}, "phone": "+16613684600", "display_phone": "(661) 368-4600", "distance": 16224.098550445267}, {"id": "i_DtBCPS5l5Jo4Vpdg6KpA", "alias": "moo-creamery-bakersfield", "name": "Moo Creamery", "image_url": "https://s3-media2.fl.yelpcdn.com/bphoto/CFO0c9WNkHgqVh_qnuFBrQ/o.jpg", "is_closed": false, "url": "https://www.yelp.com/biz/moo-creamery-bakersfield?adjust_creative=1Jm_1M8YMBnoB20WncMiZA&utm_campaign=yelp_api_v3&utm_medium=api_v3_business_search&utm_source=1Jm_1M8YMBnoB20WncMiZA", "review_count": 2261, "categories": [{"alias": "icecream", "title": "Ice Cream & Frozen Yogurt"}, {"alias": "burgers", "title": "Burgers"}, {"alias": "breakfast_brunch", "title": "Breakfast & Brunch"}], "rating": 4.0, "coordinates": {"latitude": 35.37058283257848, "longitude": -119.0560760233037}, "transactions": ["delivery", "pickup"], "price": "$$", "location": {"address1": "4885 Truxtun Ave", "address2": "Ste B", "address3": "", "city": "Bakersfield", "zip_code": "93309", "country": "US", "state": "CA", "display_address": ["4885 Truxtun Ave", "Ste B", "Bakersfield, CA 93309"]}, "phone": "+16618611130", "display_phone": "(661) 861-1130", "distance": 22421.119900571935}, {"id": "-w8UDTnoLi8bwmqb61Ne3Q", "alias": "maui-pho-fusion-bbq-and-grill-bakersfield-2", "name": "Maui Pho Fusion BBQ & Grill", "image_url": "https://s3-media2.fl.yelpcdn.com/bphoto/AcLmXiw3bF9SIQZPDWwhcw/o.jpg", "is_closed": false, "url": "https://www.yelp.com/biz/maui-pho-fusion-bbq-and-grill-bakersfield-2?adjust_creative=1Jm_1M8YMBnoB20WncMiZA&utm_campaign=yelp_api_v3&utm_medium=api_v3_business_search&utm_source=1Jm_1M8YMBnoB20WncMiZA", "review_count": 423, "categories": [{"alias": "asianfusion", "title": "Asian Fusion"}, {"alias": "chinese", "title": "Chinese"}, {"alias": "vietnamese", "title": "Vietnamese"}], "rating": 3.5, "coordinates": {"latitude": 35.339233, "longitude": -119.0497508}, "transactions": ["delivery", "pickup"], "price": "$$", "location": {"address1": "4011 Ming Ave", "address2": "", "address3": "", "city": "Bakersfield", "zip_code": "93309", "country": "US", "state": "CA", "display_address": ["4011 Ming Ave", "Bakersfield, CA 93309"]}, "phone": "+16618343235", "display_phone": "(661) 834-3235", "distance": 18917.75238291452}, {"id": "3mrSzK4Ttiwl2QUAFuIF5Q", "alias": "winco-foods-bakersfield", "name": "WinCo Foods", "image_url": "https://s3-media4.fl.yelpcdn.com/bphoto/ZMxxFIcMBuLqXrJV1zRRhw/o.jpg", "is_closed": false, "url": "https://www.yelp.com/biz/winco-foods-bakersfield?adjust_creative=1Jm_1M8YMBnoB20WncMiZA&utm_campaign=yelp_api_v3&utm_medium=api_v3_business_search&utm_source=1Jm_1M8YMBnoB20WncMiZA", "review_count": 129, "categories": [{"alias": "grocery", "title": "Grocery"}], "rating": 4.0, "coordinates": {"latitude": 35.3983256215958, "longitude": -119.09052710135788}, "transactions": [], "price": "$", "location": {"address1": "4200 Coffee Rd", "address2": "", "address3": "", "city": "Bakersfield", "zip_code": "93308", "country": "US", "state": "CA", "display_address": ["4200 Coffee Rd", "Bakersfield, CA 93308"]}, "phone": "+16612133726", "display_phone": "(661) 213-3726", "distance": 25815.19652363157}, {"id": "0WGksyyDCq0s8PCaSOpSiw", "alias": "salt-water-poke-bakersfield-2", "name": "Salt Water Poke", "image_url": "https://s3-media3.fl.yelpcdn.com/bphoto/HUp-ZWhml25LXusNCAKlbw/o.jpg", "is_closed": false, "url": "https://www.yelp.com/biz/salt-water-poke-bakersfield-2?adjust_creative=1Jm_1M8YMBnoB20WncMiZA&utm_campaign=yelp_api_v3&utm_medium=api_v3_business_search&utm_source=1Jm_1M8YMBnoB20WncMiZA", "review_count": 96, "categories": [{"alias": "hawaiian", "title": "Hawaiian"}, {"alias": "poke", "title": "Poke"}, {"alias": "acaibowls", "title": "Acai Bowls"}], "rating": 4.5, "coordinates": {"latitude": 35.392574, "longitude": -119.092611}, "transactions": ["delivery", "pickup"], "price": "$$", "location": {"address1": "3615 Coffee Rd", "address2": "Ste 400", "address3": null, "city": "Bakersfield", "zip_code": "93308", "country": "US", "state": "CA", "display_address": ["3615 Coffee Rd", "Ste 400", "Bakersfield, CA 93308"]}, "phone": "+16613682338", "display_phone": "(661) 368-2338", "distance": 25215.74512159142}, {"id": "hF-Qn691oRJBL5ElwFckSA", "alias": "winco-foods-bakersfield-4", "name": "WinCo Foods", "image_url": "https://s3-media4.fl.yelpcdn.com/bphoto/HragF5dZZv9j8zHdMD24uA/o.jpg", "is_closed": false, "url": "https://www.yelp.com/biz/winco-foods-bakersfield-4?adjust_creative=1Jm_1M8YMBnoB20WncMiZA&utm_campaign=yelp_api_v3&utm_medium=api_v3_business_search&utm_source=1Jm_1M8YMBnoB20WncMiZA", "review_count": 96, "categories": [{"alias": "grocery", "title": "Grocery"}], "rating": 4.0, "coordinates": {"latitude": 35.29497179408092, "longitude": -119.07771112002335}, "transactions": [], "price": "$", "location": {"address1": "6801 Panama Ln", "address2": "", "address3": "", "city": "Bakersfield", "zip_code": "93313", "country": "US", "state": "CA", "display_address": ["6801 Panama Ln", "Bakersfield, CA 93313"]}, "phone": "+16614732038", "display_phone": "(661) 473-2038", "distance": 14301.420886158769}, {"id": "d4PcjEa7FPaNXZ-2a81eVA", "alias": "temblor-brewing-company-bakersfield", "name": "Temblor Brewing Company", "image_url": "https://s3-media4.fl.yelpcdn.com/bphoto/yG_izexSsyWPQ3fdVOVApA/o.jpg", "is_closed": false, "url": "https://www.yelp.com/biz/temblor-brewing-company-bakersfield?adjust_creative=1Jm_1M8YMBnoB20WncMiZA&utm_campaign=yelp_api_v3&utm_medium=api_v3_business_search&utm_source=1Jm_1M8YMBnoB20WncMiZA", "review_count": 663, "categories": [{"alias": "breweries", "title": "Breweries"}, {"alias": "newamerican", "title": "American (New)"}, {"alias": "venues", "title": "Venues & Event Spaces"}], "rating": 4.0, "coordinates": {"latitude": 35.38877, "longitude": -119.04222}, "transactions": ["delivery", "pickup"], "price": "$$", "location": {"address1": "3200 Buck Owens Blvd", "address2": "Ste 200", "address3": "", "city": "Bakersfield", "zip_code": "93308", "country": "US", "state": "CA", "display_address": ["3200 Buck Owens Blvd", "Ste 200", "Bakersfield, CA 93308"]}, "phone": "+16614894855", "display_phone": "(661) 489-4855", "distance": 24419.507801623433}, {"id": "WAwD-kwsHzcmL7dPY9Y3sA", "alias": "fusion-teriyaki-bowl-bakersfield-2", "name": "Fusion Teriyaki Bowl", "image_url": "https://s3-media3.fl.yelpcdn.com/bphoto/PCcetftVJdeIkSpt3OG8lA/o.jpg", "is_closed": false, "url": "https://www.yelp.com/biz/fusion-teriyaki-bowl-bakersfield-2?adjust_creative=1Jm_1M8YMBnoB20WncMiZA&utm_campaign=yelp_api_v3&utm_medium=api_v3_business_search&utm_source=1Jm_1M8YMBnoB20WncMiZA", "review_count": 50, "categories": [{"alias": "chinese", "title": "Chinese"}], "rating": 2.5, "coordinates": {"latitude": 35.319257, "longitude": -119.072145}, "transactions": ["delivery", "pickup"], "price": "$", "location": {"address1": "6300 White Ln", "address2": "Ste K", "address3": null, "city": "Bakersfield", "zip_code": "93309", "country": "US", "state": "CA", "display_address": ["6300 White Ln", "Ste K", "Bakersfield, CA 93309"]}, "phone": "+16618317100", "display_phone": "(661) 831-7100", "distance": 16871.477459570684}, {"id": "gzYsiRzTXj9UglLjPx_XWg", "alias": "mikado-japanese-restaurant-bakersfield", "name": "Mikado Japanese Restaurant", "image_url": "https://s3-media4.fl.yelpcdn.com/bphoto/7MCWjg0Eh8d4AuEeJLFgsA/o.jpg", "is_closed": false, "url": "https://www.yelp.com/biz/mikado-japanese-restaurant-bakersfield?adjust_creative=1Jm_1M8YMBnoB20WncMiZA&utm_campaign=yelp_api_v3&utm_medium=api_v3_business_search&utm_source=1Jm_1M8YMBnoB20WncMiZA", "review_count": 5, "categories": [{"alias": "sushi", "title": "Sushi Bars"}, {"alias": "japanese", "title": "Japanese"}], "rating": 3.0, "coordinates": {"latitude": 35.36827500047409, "longitude": -119.04817860246904}, "transactions": [], "location": {"address1": "4154 California Ave", "address2": null, "address3": "", "city": "Bakersfield", "zip_code": "93309", "country": "US", "state": "CA", "display_address": ["4154 California Ave", "Bakersfield, CA 93309"]}, "phone": "", "display_phone": "", "distance": 22144.126100593854}, {"id": "4uzMq0NKDVJviuQ5Dm8Q_w", "alias": "asian-vegan-bistro-bakersfield-2", "name": "Asian Vegan Bistro", "image_url": "https://s3-media3.fl.yelpcdn.com/bphoto/Mu9Z6GxZ2Vz1o-zTC4uhpQ/o.jpg", "is_closed": false, "url": "https://www.yelp.com/biz/asian-vegan-bistro-bakersfield-2?adjust_creative=1Jm_1M8YMBnoB20WncMiZA&utm_campaign=yelp_api_v3&utm_medium=api_v3_business_search&utm_source=1Jm_1M8YMBnoB20WncMiZA", "review_count": 52, "categories": [{"alias": "vegan", "title": "Vegan"}, {"alias": "salad", "title": "Salad"}, {"alias": "japanese", "title": "Japanese"}], "rating": 4.5, "coordinates": {"latitude": 35.333890957838776, "longitude": -119.074811}, "transactions": [], "price": "$$", "location": {"address1": "2217 Ashe Rd", "address2": null, "address3": "", "city": "Bakersfield", "zip_code": "93309", "country": "US", "state": "CA", "display_address": ["2217 Ashe Rd", "Bakersfield, CA 93309"]}, "phone": "+16615649005", "display_phone": "(661) 564-9005", "distance": 18516.572385680636}, {"id": "gW5UxuBU5h6Fs57LrgVa1Q", "alias": "teriyaki-bowl-bakersfield-3", "name": "Teriyaki Bowl", "image_url": "https://s3-media1.fl.yelpcdn.com/bphoto/S89K1s5iwtKamnXkXNhKgg/o.jpg", "is_closed": false, "url": "https://www.yelp.com/biz/teriyaki-bowl-bakersfield-3?adjust_creative=1Jm_1M8YMBnoB20WncMiZA&utm_campaign=yelp_api_v3&utm_medium=api_v3_business_search&utm_source=1Jm_1M8YMBnoB20WncMiZA", "review_count": 58, "categories": [{"alias": "chinese", "title": "Chinese"}, {"alias": "sushi", "title": "Sushi Bars"}, {"alias": "hotdogs", "title": "Fast Food"}], "rating": 2.5, "coordinates": {"latitude": 35.3926467895508, "longitude": -118.95027923584}, "transactions": [], "price": "$", "location": {"address1": "2600 Oswell St", "address2": "Ste A", "address3": "", "city": "Bakersfield", "zip_code": "93306", "country": "US", "state": "CA", "display_address": ["2600 Oswell St", "Ste A", "Bakersfield, CA 93306"]}, "phone": "+16618728828", "display_phone": "(661) 872-8828", "distance": 26293.92153047712}, {"id": "5COzEBdUfyUdgoK5TrrlQQ", "alias": "coconut-joes-bakersfield-3", "name": "Coconut Joe's", "image_url": "https://s3-media3.fl.yelpcdn.com/bphoto/Ki9N1HK2b2h-E4MMMmkBCw/o.jpg", "is_closed": false, "url": "https://www.yelp.com/biz/coconut-joes-bakersfield-3?adjust_creative=1Jm_1M8YMBnoB20WncMiZA&utm_campaign=yelp_api_v3&utm_medium=api_v3_business_search&utm_source=1Jm_1M8YMBnoB20WncMiZA", "review_count": 290, "categories": [{"alias": "fishnchips", "title": "Fish & Chips"}, {"alias": "seafood", "title": "Seafood"}, {"alias": "catering", "title": "Caterers"}], "rating": 4.0, "coordinates": {"latitude": 35.36855, "longitude": -119.04836}, "transactions": ["pickup", "delivery"], "price": "$$", "location": {"address1": "4158 California Ave", "address2": "", "address3": "", "city": "Bakersfield", "zip_code": "93309", "country": "US", "state": "CA", "display_address": ["4158 California Ave", "Bakersfield, CA 93309"]}, "phone": "+16613271378", "display_phone": "(661) 327-1378", "distance": 22176.544261693052}, {"id": "mGtVYeguggCYofpBFUtU_Q", "alias": "cafe-umi-bakersfield", "name": "Cafe Umi", "image_url": "https://s3-media3.fl.yelpcdn.com/bphoto/A8r4RbV5e0HwYkCq8I8tfQ/o.jpg", "is_closed": false, "url": "https://www.yelp.com/biz/cafe-umi-bakersfield?adjust_creative=1Jm_1M8YMBnoB20WncMiZA&utm_campaign=yelp_api_v3&utm_medium=api_v3_business_search&utm_source=1Jm_1M8YMBnoB20WncMiZA", "review_count": 1, "categories": [{"alias": "cafes", "title": "Cafes"}, {"alias": "sushi", "title": "Sushi Bars"}], "rating": 1.0, "coordinates": {"latitude": 35.372777550800826, "longitude": -119.01490632883554}, "transactions": [], "location": {"address1": "1115 Truxtun Ave", "address2": "", "address3": null, "city": "Bakersfield", "zip_code": "93301", "country": "US", "state": "CA", "display_address": ["1115 Truxtun Ave", "Bakersfield, CA 93301"]}, "phone": "", "display_phone": "", "distance": 22808.38940356526}, {"id": "lgyUcp75AfH3_M4tk7by6A", "alias": "chopstix-louisiana-fried-chicken-bakersfield", "name": "Chopstix/ Louisiana Fried Chicken", "image_url": "https://s3-media1.fl.yelpcdn.com/bphoto/tYVsJPnE8eK1T6N9C_zFlQ/o.jpg", "is_closed": false, "url": "https://www.yelp.com/biz/chopstix-louisiana-fried-chicken-bakersfield?adjust_creative=1Jm_1M8YMBnoB20WncMiZA&utm_campaign=yelp_api_v3&utm_medium=api_v3_business_search&utm_source=1Jm_1M8YMBnoB20WncMiZA", "review_count": 57, "categories": [{"alias": "chinese", "title": "Chinese"}], "rating": 4.0, "coordinates": {"latitude": 35.3397050499916, "longitude": -119.051699861884}, "transactions": ["delivery"], "price": "$", "location": {"address1": "4474 Ming Ave", "address2": "", "address3": "", "city": "Bakersfield", "zip_code": "93309", "country": "US", "state": "CA", "display_address": ["4474 Ming Ave", "Bakersfield, CA 93309"]}, "phone": "+16618357719", "display_phone": "(661) 835-7719", "distance": 18971.18820773592}, {"id": "w9T9KIMB-WuU8NJ8osbsYw", "alias": "nuestro-mexico-tacos-and-bar-bakersfield", "name": "Nuestro Mexico Tacos and Bar", "image_url": "https://s3-media4.fl.yelpcdn.com/bphoto/82FgC5OUzCrY4zI15Oxm8Q/o.jpg", "is_closed": false, "url": "https://www.yelp.com/biz/nuestro-mexico-tacos-and-bar-bakersfield?adjust_creative=1Jm_1M8YMBnoB20WncMiZA&utm_campaign=yelp_api_v3&utm_medium=api_v3_business_search&utm_source=1Jm_1M8YMBnoB20WncMiZA", "review_count": 48, "categories": [{"alias": "bars", "title": "Bars"}, {"alias": "tacos", "title": "Tacos"}, {"alias": "newmexican", "title": "New Mexican Cuisine"}], "rating": 4.0, "coordinates": {"latitude": 35.401164, "longitude": -119.109485}, "transactions": ["pickup", "delivery"], "location": {"address1": "9660 Hageman Rd", "address2": "Ste A", "address3": "", "city": "Bakersfield", "zip_code": "93312", "country": "US", "state": "CA", "display_address": ["9660 Hageman Rd", "Ste A", "Bakersfield, CA 93312"]}, "phone": "+16616153384", "display_phone": "(661) 615-3384", "distance": 26461.68878984864}, {"id": "EjrWTKzlEODkBAa6_pAorA", "alias": "pho-88-bakersfield", "name": "Pho 88", "image_url": "https://s3-media4.fl.yelpcdn.com/bphoto/LLuyRGra4pJgdrOlry5zxQ/o.jpg", "is_closed": false, "url": "https://www.yelp.com/biz/pho-88-bakersfield?adjust_creative=1Jm_1M8YMBnoB20WncMiZA&utm_campaign=yelp_api_v3&utm_medium=api_v3_business_search&utm_source=1Jm_1M8YMBnoB20WncMiZA", "review_count": 250, "categories": [{"alias": "vietnamese", "title": "Vietnamese"}], "rating": 3.5, "coordinates": {"latitude": 35.392557, "longitude": -119.092625}, "transactions": ["delivery"], "price": "$$", "location": {"address1": "3615 Coffee Rd", "address2": "Ste 300", "address3": "", "city": "Bakersfield", "zip_code": "93308", "country": "US", "state": "CA", "display_address": ["3615 Coffee Rd", "Ste 300", "Bakersfield, CA 93308"]}, "phone": "+16615892800", "display_phone": "(661) 589-2800", "distance": 25214.100105536883}, {"id": "97fnvG-EtBsbKaJGZtRBmw", "alias": "studio-movie-grill-bakersfield-7", "name": "Studio Movie Grill", "image_url": "https://s3-media2.fl.yelpcdn.com/bphoto/D-z5fMZEVwR0rU1mYq1ATA/o.jpg", "is_closed": false, "url": "https://www.yelp.com/biz/studio-movie-grill-bakersfield-7?adjust_creative=1Jm_1M8YMBnoB20WncMiZA&utm_campaign=yelp_api_v3&utm_medium=api_v3_business_search&utm_source=1Jm_1M8YMBnoB20WncMiZA", "review_count": 687, "categories": [{"alias": "movietheaters", "title": "Cinema"}, {"alias": "tradamerican", "title": "American (Traditional)"}], "rating": 3.5, "coordinates": {"latitude": 35.38496, "longitude": -119.11151}, "transactions": ["pickup", "delivery"], "price": "$$", "location": {"address1": "2733 Calloway Dr", "address2": null, "address3": "", "city": "Bakersfield", "zip_code": "93312", "country": "US", "state": "CA", "display_address": ["2733 Calloway Dr", "Bakersfield, CA 93312"]}, "phone": "+16615352292", "display_phone": "(661) 535-2292", "distance": 24766.926640417714}, {"id": "_QOClmsRUKD-gZcZbcbhdQ", "alias": "r\u00edo-a\u00e7ai-bowls-bakersfield", "name": "R\u00edo A\u00e7ai Bowls", "image_url": "https://s3-media4.fl.yelpcdn.com/bphoto/JtJD7Sur1O1DQI9y5ZXKgg/o.jpg", "is_closed": false, "url": "https://www.yelp.com/biz/r%C3%ADo-a%C3%A7ai-bowls-bakersfield?adjust_creative=1Jm_1M8YMBnoB20WncMiZA&utm_campaign=yelp_api_v3&utm_medium=api_v3_business_search&utm_source=1Jm_1M8YMBnoB20WncMiZA", "review_count": 228, "categories": [{"alias": "vegan", "title": "Vegan"}, {"alias": "poke", "title": "Poke"}, {"alias": "acaibowls", "title": "Acai Bowls"}], "rating": 4.5, "coordinates": {"latitude": 35.3764722474162, "longitude": -119.018704851695}, "transactions": ["pickup", "delivery"], "price": "$", "location": {"address1": "1914 Chester Ave", "address2": "", "address3": "", "city": "Bakersfield", "zip_code": "93301", "country": "US", "state": "CA", "display_address": ["1914 Chester Ave", "Bakersfield, CA 93301"]}, "phone": "+16613484159", "display_phone": "(661) 348-4159", "distance": 23189.779458379347}, {"id": "q0e_a9o5T6edx3GA0PJEqA", "alias": "china-star-buffet-bakersfield", "name": "China Star Buffet", "image_url": "https://s3-media4.fl.yelpcdn.com/bphoto/aTp2LaEmJ_f8tMDFnQnN2g/o.jpg", "is_closed": false, "url": "https://www.yelp.com/biz/china-star-buffet-bakersfield?adjust_creative=1Jm_1M8YMBnoB20WncMiZA&utm_campaign=yelp_api_v3&utm_medium=api_v3_business_search&utm_source=1Jm_1M8YMBnoB20WncMiZA", "review_count": 116, "categories": [{"alias": "chinese", "title": "Chinese"}], "rating": 2.0, "coordinates": {"latitude": 35.3249051, "longitude": -119.0560723}, "transactions": ["delivery"], "price": "$$", "location": {"address1": "4771 Planz Rd", "address2": "", "address3": "", "city": "Bakersfield", "zip_code": "93309", "country": "US", "state": "CA", "display_address": ["4771 Planz Rd", "Bakersfield, CA 93309"]}, "phone": "+16613961888", "display_phone": "(661) 396-1888", "distance": 17338.623214786898}, {"id": "N9-oUz0NoWMHf-Kmd1WKcQ", "alias": "p-f-changs-bakersfield-3", "name": "P.F. Chang's", "image_url": "https://s3-media2.fl.yelpcdn.com/bphoto/uEPGClBnr1rq0EUlUiIoVQ/o.jpg", "is_closed": false, "url": "https://www.yelp.com/biz/p-f-changs-bakersfield-3?adjust_creative=1Jm_1M8YMBnoB20WncMiZA&utm_campaign=yelp_api_v3&utm_medium=api_v3_business_search&utm_source=1Jm_1M8YMBnoB20WncMiZA", "review_count": 293, "categories": [{"alias": "asianfusion", "title": "Asian Fusion"}, {"alias": "chinese", "title": "Chinese"}], "rating": 3.0, "coordinates": {"latitude": 35.35033, "longitude": -119.12155}, "transactions": ["pickup", "delivery"], "price": "$$", "location": {"address1": "10700 Stockdale Hwy", "address2": "", "address3": "", "city": "Bakersfield", "zip_code": "93311", "country": "US", "state": "CA", "display_address": ["10700 Stockdale Hwy", "Bakersfield, CA 93311"]}, "phone": "+16616648100", "display_phone": "(661) 664-8100", "distance": 21313.862499280873}, {"id": "7obhfXUyrUHDqBa7E4QyHg", "alias": "rio-a\u00e7ai-bowls-bakersfield-5", "name": "Rio A\u00e7ai Bowls", "image_url": "https://s3-media3.fl.yelpcdn.com/bphoto/zscAi59AV-7QZXzbSklUZw/o.jpg", "is_closed": false, "url": "https://www.yelp.com/biz/rio-a%C3%A7ai-bowls-bakersfield-5?adjust_creative=1Jm_1M8YMBnoB20WncMiZA&utm_campaign=yelp_api_v3&utm_medium=api_v3_business_search&utm_source=1Jm_1M8YMBnoB20WncMiZA", "review_count": 116, "categories": [{"alias": "poke", "title": "Poke"}, {"alias": "acaibowls", "title": "Acai Bowls"}, {"alias": "vegan", "title": "Vegan"}], "rating": 4.0, "coordinates": {"latitude": 35.3850555419922, "longitude": -119.109046936035}, "transactions": ["delivery"], "price": "$", "location": {"address1": "2720 Calloway Dr", "address2": "Ste C", "address3": null, "city": "Bakersfield", "zip_code": "93312", "country": "US", "state": "CA", "display_address": ["2720 Calloway Dr", "Ste C", "Bakersfield, CA 93312"]}, "phone": "+16618297411", "display_phone": "(661) 829-7411", "distance": 24699.96381556932}, {"id": "ljsQr88Q0SC5FzErbz5IkA", "alias": "lassens-natural-foods-and-vitamins-bakersfield-4", "name": "Lassens Natural Foods & Vitamins", "image_url": "https://s3-media2.fl.yelpcdn.com/bphoto/QKocSjxoKMBlur8JyOyOOQ/o.jpg", "is_closed": false, "url": "https://www.yelp.com/biz/lassens-natural-foods-and-vitamins-bakersfield-4?adjust_creative=1Jm_1M8YMBnoB20WncMiZA&utm_campaign=yelp_api_v3&utm_medium=api_v3_business_search&utm_source=1Jm_1M8YMBnoB20WncMiZA", "review_count": 192, "categories": [{"alias": "healthmarkets", "title": "Health Markets"}, {"alias": "vitaminssupplements", "title": "Vitamins & Supplements"}], "rating": 4.0, "coordinates": {"latitude": 35.3691335519786, "longitude": -119.050301961377}, "transactions": [], "price": "$$", "location": {"address1": "4308 California Ave", "address2": "", "address3": "", "city": "Bakersfield", "zip_code": "93309", "country": "US", "state": "CA", "display_address": ["4308 California Ave", "Bakersfield, CA 93309"]}, "phone": "+16613246990", "display_phone": "(661) 324-6990", "distance": 22242.838852879988}, {"id": "cUIjKP35iPEzjPZfT0c7UQ", "alias": "belvedere-room-bakersfield", "name": "Belvedere Room", "image_url": "https://s3-media3.fl.yelpcdn.com/bphoto/r2d-TARKL1uogzEfdPpwIw/o.jpg", "is_closed": false, "url": "https://www.yelp.com/biz/belvedere-room-bakersfield?adjust_creative=1Jm_1M8YMBnoB20WncMiZA&utm_campaign=yelp_api_v3&utm_medium=api_v3_business_search&utm_source=1Jm_1M8YMBnoB20WncMiZA", "review_count": 198, "categories": [{"alias": "newamerican", "title": "American (New)"}, {"alias": "breakfast_brunch", "title": "Breakfast & Brunch"}, {"alias": "steak", "title": "Steakhouses"}], "rating": 4.0, "coordinates": {"latitude": 35.375584259327375, "longitude": -119.02135821630633}, "transactions": ["delivery"], "price": "$$$", "location": {"address1": "1702 18th St", "address2": "", "address3": "", "city": "Bakersfield", "zip_code": "93301", "country": "US", "state": "CA", "display_address": ["1702 18th St", "Bakersfield, CA 93301"]}, "phone": "+16614274900", "display_phone": "(661) 427-4900", "distance": 23056.12292948662}, {"id": "PuV-eeDa2gSXIg48HJ-Deg", "alias": "sprouts-farmers-market-bakersfield-3", "name": "Sprouts Farmers Market", "image_url": "https://s3-media1.fl.yelpcdn.com/bphoto/1G6KgLekPZa0dXscZGgVTA/o.jpg", "is_closed": false, "url": "https://www.yelp.com/biz/sprouts-farmers-market-bakersfield-3?adjust_creative=1Jm_1M8YMBnoB20WncMiZA&utm_campaign=yelp_api_v3&utm_medium=api_v3_business_search&utm_source=1Jm_1M8YMBnoB20WncMiZA", "review_count": 117, "categories": [{"alias": "grocery", "title": "Grocery"}, {"alias": "healthmarkets", "title": "Health Markets"}, {"alias": "organic_stores", "title": "Organic Stores"}], "rating": 4.0, "coordinates": {"latitude": 35.3516753357177, "longitude": -119.121975387836}, "transactions": [], "price": "$$", "location": {"address1": "10650 Stockdale Hwy", "address2": "Ste 400", "address3": null, "city": "Bakersfield", "zip_code": "93311", "country": "US", "state": "CA", "display_address": ["10650 Stockdale Hwy", "Ste 400", "Bakersfield, CA 93311"]}, "phone": "+16616178957", "display_phone": "(661) 617-8957", "distance": 21463.061784905487}, {"id": "CP6aXAXriGH23NIckjns-Q", "alias": "the-runner-cafe-bakersfield", "name": "The Runner Cafe", "image_url": "https://s3-media3.fl.yelpcdn.com/bphoto/qk5PHFBKI95HFF4AaWsg5A/o.jpg", "is_closed": false, "url": "https://www.yelp.com/biz/the-runner-cafe-bakersfield?adjust_creative=1Jm_1M8YMBnoB20WncMiZA&utm_campaign=yelp_api_v3&utm_medium=api_v3_business_search&utm_source=1Jm_1M8YMBnoB20WncMiZA", "review_count": 7, "categories": [{"alias": "cafes", "title": "Cafes"}], "rating": 2.0, "coordinates": {"latitude": 35.3503956562196, "longitude": -119.102463024804}, "transactions": [], "price": "$", "location": {"address1": "9001 Stockdale Hwy", "address2": "", "address3": "", "city": "Bakersfield", "zip_code": "93311", "country": "US", "state": "CA", "display_address": ["9001 Stockdale Hwy", "Bakersfield, CA 93311"]}, "phone": "", "display_phone": "", "distance": 20816.255497278293}, {"id": "WnxL_Ip3zzlXJKZadtmSzA", "alias": "chinatown-buffet-bakersfield-2", "name": "Chinatown Buffet", "image_url": "https://s3-media1.fl.yelpcdn.com/bphoto/lY4jdqgGM5qjaZfRV9rTEg/o.jpg", "is_closed": false, "url": "https://www.yelp.com/biz/chinatown-buffet-bakersfield-2?adjust_creative=1Jm_1M8YMBnoB20WncMiZA&utm_campaign=yelp_api_v3&utm_medium=api_v3_business_search&utm_source=1Jm_1M8YMBnoB20WncMiZA", "review_count": 95, "categories": [{"alias": "buffets", "title": "Buffets"}, {"alias": "chinese", "title": "Chinese"}], "rating": 2.5, "coordinates": {"latitude": 35.36782, "longitude": -119.03946}, "transactions": [], "price": "$$", "location": {"address1": "1021 Oak St", "address2": "", "address3": "", "city": "Bakersfield", "zip_code": "93304", "country": "US", "state": "CA", "display_address": ["1021 Oak St", "Bakersfield, CA 93304"]}, "phone": "+16613243189", "display_phone": "(661) 324-3189", "distance": 22094.5380817111}, {"id": "GSX1NI6u0BcrEf8v74fYWQ", "alias": "red-lobster-bakersfield", "name": "Red Lobster", "image_url": "https://s3-media2.fl.yelpcdn.com/bphoto/Hi9_tlSljJeF2TEbgpA_0Q/o.jpg", "is_closed": false, "url": "https://www.yelp.com/biz/red-lobster-bakersfield?adjust_creative=1Jm_1M8YMBnoB20WncMiZA&utm_campaign=yelp_api_v3&utm_medium=api_v3_business_search&utm_source=1Jm_1M8YMBnoB20WncMiZA", "review_count": 237, "categories": [{"alias": "seafood", "title": "Seafood"}, {"alias": "tradamerican", "title": "American (Traditional)"}], "rating": 3.0, "coordinates": {"latitude": 35.383861, "longitude": -119.093014}, "transactions": ["pickup", "delivery"], "price": "$$", "location": {"address1": "8180 RosedaleHWY", "address2": "NORTHWEST PROMENADE SHOPPING CENTER", "address3": "", "city": "Bakersfield", "zip_code": "93312", "country": "US", "state": "CA", "display_address": ["8180 RosedaleHWY", "NORTHWEST PROMENADE SHOPPING CENTER", "Bakersfield, CA 93312"]}, "phone": "+16615899956", "display_phone": "(661) 589-9956", "distance": 24268.31306378093}, {"id": "9HAkEFLc9rK211uK3MOuow", "alias": "vons-bakersfield-8", "name": "Vons", "image_url": "https://s3-media3.fl.yelpcdn.com/bphoto/93-iQu2NYW2zI3efFaPexg/o.jpg", "is_closed": false, "url": "https://www.yelp.com/biz/vons-bakersfield-8?adjust_creative=1Jm_1M8YMBnoB20WncMiZA&utm_campaign=yelp_api_v3&utm_medium=api_v3_business_search&utm_source=1Jm_1M8YMBnoB20WncMiZA", "review_count": 61, "categories": [{"alias": "grocery", "title": "Grocery"}], "rating": 3.0, "coordinates": {"latitude": 35.3416605, "longitude": -119.102561914051}, "transactions": [], "price": "$$", "location": {"address1": "9000 Ming Ave", "address2": "", "address3": null, "city": "Bakersfield", "zip_code": "93311", "country": "US", "state": "CA", "display_address": ["9000 Ming Ave", "Bakersfield, CA 93311"]}, "phone": "+16616630595", "display_phone": "(661) 663-0595", "distance": 19879.753576499294}, {"id": "A5AhA_LYfGMmpWPVhVkyBQ", "alias": "trader-joes-bakersfield", "name": "Trader Joe's", "image_url": "https://s3-media4.fl.yelpcdn.com/bphoto/Ld2H_yaQSqx0mJl2CjdukQ/o.jpg", "is_closed": false, "url": "https://www.yelp.com/biz/trader-joes-bakersfield?adjust_creative=1Jm_1M8YMBnoB20WncMiZA&utm_campaign=yelp_api_v3&utm_medium=api_v3_business_search&utm_source=1Jm_1M8YMBnoB20WncMiZA", "review_count": 170, "categories": [{"alias": "grocery", "title": "Grocery"}], "rating": 4.5, "coordinates": {"latitude": 35.357022, "longitude": -119.093527}, "transactions": [], "price": "$$", "location": {"address1": "8200 Stockdale Hwy", "address2": "", "address3": "", "city": "Bakersfield", "zip_code": "93311", "country": "US", "state": "CA", "display_address": ["8200 Stockdale Hwy", "Bakersfield, CA 93311"]}, "phone": "+16618378863", "display_phone": "(661) 837-8863", "distance": 21348.660267168674}, {"id": "N6f2wTV9Gd7iqFe2norBAg", "alias": "7-eleven-bakersfield-19", "name": "7-Eleven", "image_url": "https://s3-media2.fl.yelpcdn.com/bphoto/WgKK4Y3MsJLnqWUz9gljVQ/o.jpg", "is_closed": false, "url": "https://www.yelp.com/biz/7-eleven-bakersfield-19?adjust_creative=1Jm_1M8YMBnoB20WncMiZA&utm_campaign=yelp_api_v3&utm_medium=api_v3_business_search&utm_source=1Jm_1M8YMBnoB20WncMiZA", "review_count": 6, "categories": [{"alias": "convenience", "title": "Convenience Stores"}, {"alias": "coffee", "title": "Coffee & Tea"}], "rating": 2.5, "coordinates": {"latitude": 35.3537992496193, "longitude": -119.0603602}, "transactions": ["pickup", "delivery"], "price": "$", "location": {"address1": "5301 Stockdale Hwy", "address2": "", "address3": "", "city": "Bakersfield", "zip_code": "93309", "country": "US", "state": "CA", "display_address": ["5301 Stockdale Hwy", "Bakersfield, CA 93309"]}, "phone": "+16618324455", "display_phone": "(661) 832-4455", "distance": 20579.40290361403}, {"id": "WOkEQhQv2ZRLRC-Z15iLIg", "alias": "7-eleven-bakersfield-18", "name": "7-Eleven", "image_url": "https://s3-media4.fl.yelpcdn.com/bphoto/9Sm52PvSLylMLmGh95HbHA/o.jpg", "is_closed": false, "url": "https://www.yelp.com/biz/7-eleven-bakersfield-18?adjust_creative=1Jm_1M8YMBnoB20WncMiZA&utm_campaign=yelp_api_v3&utm_medium=api_v3_business_search&utm_source=1Jm_1M8YMBnoB20WncMiZA", "review_count": 4, "categories": [{"alias": "convenience", "title": "Convenience Stores"}, {"alias": "coffee", "title": "Coffee & Tea"}], "rating": 2.0, "coordinates": {"latitude": 35.3972717, "longitude": -118.9855911}, "transactions": ["delivery", "pickup"], "price": "$", "location": {"address1": "2636 River Blvd", "address2": "", "address3": "", "city": "Bakersfield", "zip_code": "93305", "country": "US", "state": "CA", "display_address": ["2636 River Blvd", "Bakersfield, CA 93305"]}, "phone": "+16613222995", "display_phone": "(661) 322-2995", "distance": 25935.471330975288}]